[{"elevation": "10.0", "id": "351142", "latitude": "51.54", "longitude": "0.1478", "name": "Dagenham", "region": "se", "unitaryAuthArea": "Greater London", "distance": 4.311492726511271}, {"elevation": "17.0", "id": "354312", "latitude": "51.4898", "longitude": "0.0675", "name": "Woolwich", "region": "se", "unitaryAuthArea": "Greater London", "distance": 5.309556509340417}, {"elevation": "38.0", "id": "324382", "latitude": "51.486", "longitude": "0.062", "name": "The Royal Artillery Barracks", "region": "se", "unitaryAuthArea": "Greater London", "distance": 5.790473817558687}, {"elevation": "5.0", "id": "5", "latitude": "51.5048", "longitude": "0.058", "name": "London City Airport", "region": "se", "unitaryAuthArea": "Greater London", "distance": 5.819495400431113}, {"elevation": "12.0", "id": "324164", "latitude": "51.53926", "longitude": "0.081146", "name": "Barking", "region": "se", "unitaryAuthArea": "Greater London", "distance": 5.949162228930292}, {"elevation": "2.0", "id": "350286", "latitude": "51.5145", "longitude": "0.0582", "name": "Beckton", "region": "se", "unitaryAuthArea": "Greater London", "distance": 5.973081421495246}, {"elevation": "36.0", "id": "350413", "latitude": "51.4414", "longitude": "0.1487", "name": "Bexley", "region": "se", "unitaryAuthArea": "Greater London", "distance": 6.688300073756241}, {"elevation": "31.0", "id": "350868", "latitude": "51.4862", "longitude": "0.042", "name": "Charlton Athletic F.C.", "region": "se", "unitaryAuthArea": "Greater London", "distance": 7.119593007737448}, {"elevation": "12.0", "id": "351996", "latitude": "51.5562", "longitude": "0.0779", "name": "Ilford", "region": "se", "unitaryAuthArea": "Greater London", "distance": 7.5320373422952205}, {"elevation": "3.0", "id": "354137", "latitude": "51.5313", "longitude": "0.0397", "name": "West Ham United F.C.", "region": "se", "unitaryAuthArea": "Greater London", "distance": 7.814350316206292}, {"elevation": "4.0", "id": "351167", "latitude": "51.4457", "longitude": "0.2185", "name": "Dartford", "region": "se", "unitaryAuthArea": "Kent", "distance": 8.155184362361503}, {"elevation": "12.0", "id": "353233", "latitude": "51.5766", "longitude": "0.1799", "name": "Romford", "region": "se", "unitaryAuthArea": "Greater London", "distance": 8.76514229559877}, {"elevation": "5.0", "id": "354378", "latitude": "51.503", "longitude": "0.003", "name": "The O2", "region": "se", "unitaryAuthArea": "Greater London", "distance": 9.61590361040083}, {"elevation": "47.0", "id": "352533", "latitude": "51.477", "longitude": "0.004", "name": "Greenwich Park", "region": "se", "unitaryAuthArea": "Greater London", "distance": 9.925774023911536}, {"elevation": "60.0", "id": "350638", "latitude": "51.405", "longitude": "0.1278", "name": "Bromley Ski Centre", "region": "se", "unitaryAuthArea": "Greater London", "distance": 10.763624038862718}, {"elevation": "6.0", "id": "351683", "latitude": "51.4779", "longitude": "-0.01", "name": "Greenwich", "region": "se", "unitaryAuthArea": "Greater London", "distance": 10.83674060714321}, {"elevation": "20.0", "id": "353586", "latitude": "51.5207", "longitude": "0.296", "name": "South Ockendon", "region": "ee", "unitaryAuthArea": "Thurrock", "distance": 10.878077501200984}, {"elevation": "5.0", "id": "99203", "latitude": "51.534", "longitude": "-0.009", "name": "Londonolympic Park South", "region": "se", "unitaryAuthArea": "Greater London", "distance": 11.052657129108423}, {"elevation": "8.0", "id": "352275", "latitude": "51.463", "longitude": "-0.0076", "name": "Lewisham", "region": "se", "unitaryAuthArea": "Greater London", "distance": 11.198488495506595}, {"elevation": "8.0", "id": "354377", "latitude": "51.509", "longitude": "-0.029", "name": "Excel", "region": "se", "unitaryAuthArea": "Greater London", "distance": 11.858575663388748}]
